Location,Camera_Install_Year,Latitude,Longitude,X,Y,January,February,March,April,May,June,July,August,September,October,November,December,Total_Violations,Highest_Monthly_Total,ObjectId
E001 - Longfields Dr. between Highbury Park Dr. and Via Verona Ave.,2020,45.2814635990467,-75.7439548623326,364113.24,5016001.158,N/A,N/A,N/A,N/A,N/A,N/A,N/A,N/A,N/A,N/A,1187,999,2186,1187,1
E002 - Innes Rd. between Provence Ave. and Trim Rd.,2020,45.4691012586472,-75.459256062572,386178.806,5037101.789,N/A,N/A,N/A,N/A,N/A,N/A,997,3047,1017,753,397,403,6614,3047,2
E003 - Bayshore Dr. near 50 Bayshore Dr.,2020,45.3506373428125,-75.8062840066345,359157.22,5023644.251,N/A,N/A,N/A,N/A,N/A,N/A,3920,3120,2509,1872,830,1245,13496,3920,3
E004 - Katimavik Rd. between Castlefrank Rd. and McGibbon Dr. ,2020,45.3080091773687,-75.8999058514668,351856.62,5018848.182,N/A,N/A,N/A,N/A,N/A,N/A,N/A,N/A,2144,1197,N/A,N/A,3341,2144,4
E005 - Watters Dr. between Charlemagne Blvd. and Roberval Ave. ,2020,45.4789689898004,-75.4782706026921,384678.063,5038179.308,N/A,N/A,N/A,N/A,N/A,N/A,N/A,N/A,N/A,N/A,777,548,1325,777,5
E006 - Ogilvie Rd between Appleford St. and Elmlea Gate,2020,45.4391538031519,-75.5999189788847,375217.24,5033640.937,N/A,N/A,N/A,N/A,N/A,N/A,N/A,N/A,3645,2573,N/A,N/A,6218,3645,6
E007 - Smyth Rd. between Haig Dr. and Edgecomb St. ,2020,45.400311624799,-75.6358485216489,372452.693,5029293.619,N/A,N/A,N/A,N/A,N/A,N/A,2966,6000,N/A,N/A,N/A,11,8977,6000,7
E008 - Meadowlands Dr. W. between Winthrow Ave. and Thatcher St.,2020,45.3446553706779,-75.7500717654298,363568.007,5023018.969,N/A,N/A,N/A,N/A,N/A,N/A,2757,4902,N/A,N/A,N/A,327,7986,4902,8
